{
    "cities": [
      {
        "name": "New York",
        "latitude": 40.7128,
        "longitude": -74.0060
      },
      {
        "name": "Los Angeles",
        "latitude": 34.0522,
        "longitude": -118.2437
      },
      {
        "name": "Chicago",
        "latitude": 41.8781,
        "longitude": -87.6298
      },
      {
        "name": "San Francisco",
        "latitude": 37.7749,
        "longitude": -122.4194
      },
      {
        "name": "London",
        "latitude": 51.5074,
        "longitude": -0.1278
      },
      {
        "name": "Paris",
        "latitude": 48.8566,
        "longitude": 2.3522
      },
      {
        "name": "Tokyo",
        "latitude": 35.682839,
        "longitude": 139.759455
      },
      {
        "name": "Berlin",
        "latitude": 52.5200,
        "longitude": 13.4050
      },
      {
        "name": "Sydney",
        "latitude": -33.8651,
        "longitude": 151.2093
      },
      {
        "name": "Toronto",
        "latitude": 43.651070,
        "longitude": -79.347015
      },
      {
        "name": "Mumbai",
        "latitude": 19.0760,
        "longitude": 72.8777
      },
      {
        "name": "Rome",
        "latitude": 41.9028,
        "longitude": 12.4964
      },
      {
        "name": "Beijing",
        "latitude": 39.9042,
        "longitude": 116.4074
      },
      {
        "name": "Cairo",
        "latitude": 30.0444,
        "longitude": 31.2357
      },
      {
        "name": "Mexico City",
        "latitude": 19.4326,
        "longitude": -99.1332
      },
      {
        "name": "Sao Paulo",
        "latitude": -23.5505,
        "longitude": -46.6333
      },
      {
        "name": "Bangkok",
        "latitude": 13.7563,
        "longitude": 100.5018
      },
      {
        "name": "Dubai",
        "latitude": 25.276987,
        "longitude": 55.296249
      },
      {
        "name": "Moscow",
        "latitude": 55.7558,
        "longitude": 37.6176
      },
      {
        "name": "Singapore",
        "latitude": 1.3521,
        "longitude": 103.8198
      },
      {
        "name": "Santiago",
        "latitude": -33.4489,
        "longitude": -70.6693
      },
      {
        "name": "Cape Town",
        "latitude": -33.9249,
        "longitude": 18.4241
      },
      {
        "name": "Rio de Janeiro",
        "latitude": -22.9068,
        "longitude": -43.1729
      },
      {
        "name": "Hong Kong",
        "latitude": 22.3193,
        "longitude": 114.1694
      },
      {
        "name": "Amsterdam",
        "latitude": 52.3676,
        "longitude": 4.9041
      },
      {
        "name": "Toronto",
        "latitude": 43.65107,
        "longitude": -79.347015
      },
      {
        "name": "Dublin",
        "latitude": 53.349805,
        "longitude": -6.26031
      },
      {
        "name": "Barcelona",
        "latitude": 41.3851,
        "longitude": 2.1734
      },
      {
        "name": "Kuala Lumpur",
        "latitude": 3.1390,
        "longitude": 101.6869
      },
      {
        "name": "Stockholm",
        "latitude": 59.3293,
        "longitude": 18.0686
      },
      {
        "name": "Vienna",
        "latitude": 48.2082,
        "longitude": 16.3738
      },
      {
        "name": "Istanbul",
        "latitude": 41.0082,
        "longitude": 28.9784
      },
      {
        "name": "Munich",
        "latitude": 48.1351,
        "longitude": 11.5820
      },
      {
        "name": "Zurich",
        "latitude": 47.3769,
        "longitude": 8.5417
      },
      {
        "name": "Bangalore",
        "latitude": 12.9716,
        "longitude": 77.5946
      },
      {
        "name": "Toronto",
        "latitude": 43.65107,
        "longitude": -79.347015
      },
      {
        "name": "San Diego",
        "latitude": 32.7157,
        "longitude": -117.1611
      },
      {
        "name": "Seattle",
        "latitude": 47.6062,
        "longitude": -122.3321
      },
      {
        "name": "Austin",
        "latitude": 30.2672,
        "longitude": -97.7431
      },
      {
        "name": "Denver",
        "latitude": 39.7392,
        "longitude": -104.9903
      },
      {
        "name": "Boston",
        "latitude": 42.3601,
        "longitude": -71.0589
      },
      {
        "name": "Miami",
        "latitude": 25.7617,
        "longitude": -80.1918
      },
      {
        "name": "Dallas",
        "latitude": 32.7767,
        "longitude": -96.7970
      },
      {
        "name": "Houston",
        "latitude": 29.7604,
        "longitude": -95.3698
      },
      {
        "name": "Atlanta",
        "latitude": 33.7490,
        "longitude": -84.3880
      },
      {
        "name": "Phoenix",
        "latitude": 33.4484,
        "longitude": -112.0740
      },
      {
        "name": "Denver",
        "latitude": 39.7392,
        "longitude": -104.9903
      },
      {
        "name": "Las Vegas",
        "latitude": 36.1699,
        "longitude": -115.1398
      },
      {
        "name": "Philadelphia",
        "latitude": 39.9526,
        "longitude": -75.1652
      },
      {
        "name": "Washington, D.C.",
        "latitude": 38.8951,
        "longitude": -77.0369
      },
      {
        "name": "Nashville",
        "latitude": 36.1627,
        "longitude": -86.7816
      },
      {
        "name": "New Orleans",
        "latitude": 29.9511,
        "longitude": -90.0715
      },
      {
        "name": "Montreal",
        "latitude": 45.5017,
        "longitude": -73.5673
      },
      {
        "name": "Toronto",
        "latitude": 43.65107,
        "longitude": -79.347015
      },
      {
        "name": "Vancouver",
        "latitude": 49.2827,
        "longitude": -123.1207
      },
      {
        "name": "Calgary",
        "latitude": 51.0447,
        "longitude": -114.0719
      },
      {
        "name": "Edmonton",
        "latitude": 53.5444,
        "longitude": -113.4909
      },
      {
        "name": "Ottawa",
        "latitude": 45.4215,
        "longitude": -75.6933
      },
      {
        "name": "Winnipeg",
        "latitude": 49.8951,
        "longitude": -97.1384
      },
      {
        "name": "Quebec City",
        "latitude": 46.8139,
        "longitude": -71.2080
      },
      {
        "name": "Saskatoon",
        "latitude": 52.1319,
        "longitude": -106.6605
      },
      {
        "name": "Halifax",
        "latitude": 44.6488,
        "longitude": -63.5752
      },
      {
        "name": "St. John's",
        "latitude": 47.5615,
        "longitude": -52.7126
      },
      {
        "name": "Buenos Aires",
        "latitude": -34.6118,
        "longitude": -58.4173
      },
      {
        "name": "Rio de Janeiro",
        "latitude": -22.9068,
        "longitude": -43.1729
      },
      {
        "name": "Lima",
        "latitude": -12.0464,
        "longitude": -77.0428
      },
      {
        "name": "Santiago",
        "latitude": -33.4489,
        "longitude": -70.6693
      },
      {
        "name": "Bogota",
        "latitude": 4.6097,
        "longitude": -74.0817
      },
      {
        "name": "Quito",
        "latitude": -0.2295,
        "longitude": -78.5245
      },
      {
        "name": "Caracas",
        "latitude": 10.4961,
        "longitude": -66.8812
      },
      {
        "name": "Lisbon",
        "latitude": 38.7223,
        "longitude": -9.1393
      },
      {
        "name": "Madrid",
        "latitude": 40.4168,
        "longitude": -3.7038
      },
      {
        "name": "Rome",
        "latitude": 41.9028,
        "longitude": 12.4964
      },
      {
        "name": "Athens",
        "latitude": 37.9838,
        "longitude": 23.7275
      },
      {
        "name": "Istanbul",
        "latitude": 41.0082,
        "longitude": 28.9784
      },
      {
        "name": "Cairo",
        "latitude": 30.0444,
        "longitude": 31.2357
      }
    ]
  }
  